{"type":"FeatureCollection","features":[{"type":"Feature","geometry":{"type":"Point","coordinates":[-139.486293,59.994394]},"properties":{"slug":"hubbard","name":"Hubbard Glacier","location_id":"HUB","sensors":["climate","lidar","satellitecamera"],"scale":800}},{"type":"Feature","geometry":{"type":"Point","coordinates":[-38,66.4]},"properties":{"slug":"helheim","name":"Helheim Glacier","location_id":"HEL","sensors":["climate","lidar","satellitecamera"],"scale":400}},{"geometry":{"type":"Point","coordinates":[-146.833975,61.22250277777778]},"type":"Feature","properties":{"slug":"columbia","name":"Columbia Glacier","location_id":"COL","sensors":["climate","satellitecamera"],"scale":800}},{"geometry":{"type":"Point","coordinates":[-145.2713638888889,60.66708055555555]},"type":"Feature","properties":{"slug":"scott","name":"Scott Glacier","sensors":["climate"],"scale":800,"disabled":true}},{"geometry":{"type":"Point","coordinates":[-146.1716972222222,61.17735277777778]},"type":"Feature","properties":{"slug":"valdez","name":"Valdez Glacier","sensors":["climate"],"scale":800,"disabled":true}},{"geometry":{"type":"Point","coordinates":[-145.41485555555556,63.27641666666666]},"type":"Feature","properties":{"slug":"gulkana","name":"Gulkana Glacier","sensors":["climate"],"scale":800,"disabled":true}},{"geometry":{"type":"Point","coordinates":[-148.90606111111111,60.40937777777778]},"type":"Feature","properties":{"slug":"wolverine","name":"Wolverine Glacier","sensors":["climate"],"scale":800,"disabled":true}}]}